{"type": "FeatureCollection", "features": [{"type": "Feature", "geometry": {"type": "Point", "coordinates": [77.5839, 12.924100000000001]}, "properties": {"id": 1, "category": "bangalore_one", "category_label": "Citizen Service", "name": "Bangalore One - Jayanagar", "locality": "Jayanagar", "demo": true}}, {"type": "Feature", "geometry": {"type": "Point", "coordinates": [77.6258, 12.933200000000001]}, "properties": {"id": 2, "category": "bangalore_one", "category_label": "Citizen Service", "name": "Bangalore One - Koramangala", "locality": "Koramangala", "demo": true}}, {"type": "Feature", "geometry": {"type": "Point", "coordinates": [77.6427, 12.9683]}, "properties": {"id": 3, "category": "bangalore_one", "category_label": "Citizen Service", "name": "Bangalore One - Indiranagar", "locality": "Indiranagar", "demo": true}}, {"type": "Feature", "geometry": {"type": "Point", "coordinates": [77.57260000000001, 12.9994]}, "properties": {"id": 4, "category": "bangalore_one", "category_label": "Citizen Service", "name": "Bangalore One - Malleshwaram", "locality": "Malleshwaram", "demo": true}}, {"type": "Feature", "geometry": {"type": "Point", "coordinates": [77.749, 12.969]}, "properties": {"id": 5, "category": "bangalore_one", "category_label": "Citizen Service", "name": "Bangalore One - Whitefield", "locality": "Whitefield", "demo": true}}, {"type": "Feature", "geometry": {"type": "Point", "coordinates": [77.6479, 12.9101]}, "properties": {"id": 6, "category": "bangalore_one", "category_label": "Citizen Service", "name": "Bangalore One - HSR Layout", "locality": "HSR Layout", "demo": true}}, {"type": "Feature", "geometry": {"type": "Point", "coordinates": [77.6118, 12.914200000000001]}, "properties": {"id": 7, "category": "bangalore_one", "category_label": "Citizen Service", "name": "Bangalore One - BTM Layout", "locality": "BTM Layout", "demo": true}}, {"type": "Feature", "geometry": {"type": "Point", "coordinates": [77.5967, 13.017299999999999]}, "properties": {"id": 8, "category": "bangalore_one", "category_label": "Citizen Service", "name": "Bangalore One - RT Nagar", "locality": "RT Nagar", "demo": true}}, {"type": "Feature", "geometry": {"type": "Point", "coordinates": [77.54960000000001, 12.9214]}, "properties": {"id": 9, "category": "karnataka_one", "category_label": "Citizen Service", "name": "Karnataka One - Banashankari", "locality": "Banashankari", "demo": true}}, {"type": "Feature", "geometry": {"type": "Point", "coordinates": [77.552, 12.99]}, "properties": {"id": 10, "category": "karnataka_one", "category_label": "Citizen Service", "name": "Karnataka One - Rajajinagar", "locality": "Rajajinagar", "demo": true}}, {"type": "Feature", "geometry": {"type": "Point", "coordinates": [77.5919, 13.0341]}, "properties": {"id": 11, "category": "karnataka_one", "category_label": "Citizen Service", "name": "Karnataka One - Hebbal", "locality": "Hebbal", "demo": true}}, {"type": "Feature", "geometry": {"type": "Point", "coordinates": [77.6228, 12.9792]}, "properties": {"id": 12, "category": "karnataka_one", "category_label": "Citizen Service", "name": "Karnataka One - Ulsoor", "locality": "Ulsoor", "demo": true}}, {"type": "Feature", "geometry": {"type": "Point", "coordinates": [77.59870000000001, 13.097299999999999]}, "properties": {"id": 13, "category": "grama_one", "category_label": "Rural Service", "name": "Grama One - Yelahanka", "locality": "Yelahanka", "demo": true}}, {"type": "Feature", "geometry": {"type": "Point", "coordinates": [77.6636, 12.8414]}, "properties": {"id": 14, "category": "grama_one", "category_label": "Rural Service", "name": "Grama One - Electronic City", "locality": "Electronic City", "demo": true}}, {"type": "Feature", "geometry": {"type": "Point", "coordinates": [77.695, 13.007]}, "properties": {"id": 15, "category": "grama_one", "category_label": "Rural Service", "name": "Grama One - KR Puram", "locality": "KR Puram", "demo": true}}, {"type": "Feature", "geometry": {"type": "Point", "coordinates": [77.6249, 12.9341]}, "properties": {"id": 16, "category": "csc_aadhaar", "category_label": "Aadhaar / CSC", "name": "CSC Aadhaar Centre - Koramangala", "locality": "Koramangala", "demo": true}}, {"type": "Feature", "geometry": {"type": "Point", "coordinates": [77.7028, 12.9542]}, "properties": {"id": 17, "category": "csc_aadhaar", "category_label": "Aadhaar / CSC", "name": "CSC Aadhaar Centre - Marathahalli", "locality": "Marathahalli", "demo": true}}, {"type": "Feature", "geometry": {"type": "Point", "coordinates": [77.57770000000001, 12.9383]}, "properties": {"id": 18, "category": "csc_aadhaar", "category_label": "Aadhaar / CSC", "name": "CSC Aadhaar Centre - Basavanagudi", "locality": "Basavanagudi", "demo": true}}, {"type": "Feature", "geometry": {"type": "Point", "coordinates": [77.5886, 12.904399999999999]}, "properties": {"id": 19, "category": "csc_aadhaar", "category_label": "Aadhaar / CSC", "name": "CSC Aadhaar Centre - JP Nagar", "locality": "JP Nagar", "demo": true}}, {"type": "Feature", "geometry": {"type": "Point", "coordinates": [77.538, 12.972]}, "properties": {"id": 20, "category": "csc_aadhaar", "category_label": "Aadhaar / CSC", "name": "CSC Aadhaar Centre - Vijayanagar", "locality": "Vijayanagar", "demo": true}}, {"type": "Feature", "geometry": {"type": "Point", "coordinates": [77.6229, 12.8981]}, "properties": {"id": 21, "category": "csc_aadhaar", "category_label": "Aadhaar / CSC", "name": "CSC Aadhaar Centre - Bommanahalli", "locality": "Bommanahalli", "demo": true}}, {"type": "Feature", "geometry": {"type": "Point", "coordinates": [77.5848, 12.923200000000001]}, "properties": {"id": 22, "category": "waste", "category_label": "Dry Waste Centre", "name": "BBMP Dry Waste Collection Centre - Jayanagar", "locality": "Jayanagar", "demo": true}}, {"type": "Feature", "geometry": {"type": "Point", "coordinates": [77.5717, 13.0003]}, "properties": {"id": 23, "category": "waste", "category_label": "Dry Waste Centre", "name": "BBMP Dry Waste Collection Centre - Malleshwaram", "locality": "Malleshwaram", "demo": true}}, {"type": "Feature", "geometry": {"type": "Point", "coordinates": [77.65060000000001, 12.907399999999999]}, "properties": {"id": 24, "category": "waste", "category_label": "Dry Waste Centre", "name": "BBMP Dry Waste Collection Centre - HSR Layout", "locality": "HSR Layout", "demo": true}}, {"type": "Feature", "geometry": {"type": "Point", "coordinates": [77.575, 12.941]}, "properties": {"id": 25, "category": "waste", "category_label": "Dry Waste Centre", "name": "BBMP Dry Waste Collection Centre - Basavanagudi", "locality": "Basavanagudi", "demo": true}}, {"type": "Feature", "geometry": {"type": "Point", "coordinates": [77.6109, 12.9151]}, "properties": {"id": 26, "category": "waste", "category_label": "Dry Waste Centre", "name": "BBMP Dry Waste Collection Centre - BTM Layout", "locality": "BTM Layout", "demo": true}}, {"type": "Feature", "geometry": {"type": "Point", "coordinates": [77.5928, 13.0332]}, "properties": {"id": 27, "category": "waste", "category_label": "Dry Waste Centre", "name": "BBMP Dry Waste Collection Centre - Hebbal", "locality": "Hebbal", "demo": true}}, {"type": "Feature", "geometry": {"type": "Point", "coordinates": [77.5967, 13.017299999999999]}, "properties": {"id": 28, "category": "waste", "category_label": "Dry Waste Centre", "name": "BBMP Dry Waste Collection Centre - RT Nagar", "locality": "RT Nagar", "demo": true}}, {"type": "Feature", "geometry": {"type": "Point", "coordinates": [77.6436, 12.9674]}, "properties": {"id": 29, "category": "help", "category_label": "Public Help Desk", "name": "Citizen Help Desk - Indiranagar", "locality": "Indiranagar", "demo": true}}, {"type": "Feature", "geometry": {"type": "Point", "coordinates": [77.546, 12.925]}, "properties": {"id": 30, "category": "help", "category_label": "Public Help Desk", "name": "Citizen Help Desk - Banashankari", "locality": "Banashankari", "demo": true}}, {"type": "Feature", "geometry": {"type": "Point", "coordinates": [77.5969, 13.0991]}, "properties": {"id": 31, "category": "help", "category_label": "Public Help Desk", "name": "Citizen Help Desk - Yelahanka", "locality": "Yelahanka", "demo": true}}, {"type": "Feature", "geometry": {"type": "Point", "coordinates": [77.6968, 13.0052]}, "properties": {"id": 32, "category": "help", "category_label": "Public Help Desk", "name": "Citizen Help Desk - KR Puram", "locality": "KR Puram", "demo": true}}]}